var city = {"type":"FeatureCollection","features":[{"type":"Feature","properties":{"name":"New York","latitude":40.7128,"longitude":-74.006,"population":18819000,"gawc":"Alpha ++","country":"United States","region":"North America"},"geometry":{"type":"Point","coordinates":[-74.006,40.7128]}},{"type":"Feature","properties":{"name":"London","latitude":51.5072,"longitude":-0.1276,"population":9046000,"gawc":"Alpha ++","country":"United Kingdom","region":"Europe and Central Asia"},"geometry":{"type":"Point","coordinates":[-0.1276,51.5072]}},{"type":"Feature","properties":{"name":"Hong Kong","latitude":22.3193,"longitude":114.1694,"population":7429000,"gawc":"Alpha +","country":"China","region":"East Asia and Pacific"},"geometry":{"type":"Point","coordinates":[114.1694,22.3193]}},{"type":"Feature","properties":{"name":"Singapore","latitude":1.3521,"longitude":103.8198,"population":5792000,"gawc":"Alpha +","country":"Singapore","region":"East Asia and Pacific"},"geometry":{"type":"Point","coordinates":[103.8198,1.3521]}},{"type":"Feature","properties":{"name":"Shanghai","latitude":31.2304,"longitude":121.4737,"population":25582000,"gawc":"Alpha +","country":"China","region":"East Asia and Pacific"},"geometry":{"type":"Point","coordinates":[121.4737,31.2304]}},{"type":"Feature","properties":{"name":"Beijing","latitude":39.9042,"longitude":116.4074,"population":19618000,"gawc":"Alpha +","country":"China","region":"East Asia and Pacific"},"geometry":{"type":"Point","coordinates":[116.4074,39.9042]}},{"type":"Feature","properties":{"name":"Dubai","latitude":25.2048,"longitude":55.2708,"population":5894000,"gawc":"Alpha +","country":"United Arab Emirates","region":"Middle East and North Africa"},"geometry":{"type":"Point","coordinates":[55.2708,25.2048]}},{"type":"Feature","properties":{"name":"Paris","latitude":48.8566,"longitude":2.3522,"population":10901000,"gawc":"Alpha +","country":"France","region":"Europe and Central Asia"},"geometry":{"type":"Point","coordinates":[2.3522,48.8566]}},{"type":"Feature","properties":{"name":"Tokyo","latitude":35.6764,"longitude":139.65,"population":37468000,"gawc":"Alpha +","country":"Japan","region":"East Asia and Pacific"},"geometry":{"type":"Point","coordinates":[139.65,35.6764]}},{"type":"Feature","properties":{"name":"Sydney","latitude":-33.8688,"longitude":151.2093,"population":5450496,"gawc":"Alpha","country":"Australia","region":"East Asia and Pacific"},"geometry":{"type":"Point","coordinates":[151.2093,-33.8688]}},{"type":"Feature","properties":{"name":"Los Angeles","latitude":34.0549,"longitude":-118.2426,"population":12458000,"gawc":"Alpha","country":"United States","region":"North America"},"geometry":{"type":"Point","coordinates":[-118.2426,34.0549]}},{"type":"Feature","properties":{"name":"Toronto","latitude":43.6532,"longitude":-79.3832,"population":6082000,"gawc":"Alpha","country":"Canada","region":"North America"},"geometry":{"type":"Point","coordinates":[-79.3832,43.6532]}},{"type":"Feature","properties":{"name":"Mumbai","latitude":19.076,"longitude":72.8777,"population":19980000,"gawc":"Alpha","country":"India","region":"South Asia"},"geometry":{"type":"Point","coordinates":[72.8777,19.076]}},{"type":"Feature","properties":{"name":"Amsterdam","latitude":52.3676,"longitude":4.9041,"population":2480394,"gawc":"Alpha","country":"Netherlands","region":"Europe and Central Asia"},"geometry":{"type":"Point","coordinates":[4.9041,52.3676]}},{"type":"Feature","properties":{"name":"Milan","latitude":45.4637,"longitude":9.1885,"population":4336121,"gawc":"Alpha","country":"Italy","region":"Europe and Central Asia"},"geometry":{"type":"Point","coordinates":[9.1885,45.4637]}},{"type":"Feature","properties":{"name":"Frankfurt","latitude":50.1109,"longitude":8.6821,"population":2319029,"gawc":"Alpha","country":"Germany","region":"Europe and Central Asia"},"geometry":{"type":"Point","coordinates":[8.6821,50.1109]}},{"type":"Feature","properties":{"name":"Mexico City","latitude":19.4326,"longitude":-99.1332,"population":21581000,"gawc":"Alpha","country":"Mexico","region":"Latin America and Caribbean"},"geometry":{"type":"Point","coordinates":[-99.1332,19.4326]}},{"type":"Feature","properties":{"name":"Sao Paulo","latitude":-23.5558,"longitude":-46.6396,"population":21650000,"gawc":"Alpha","country":"Brazil","region":"Latin America and Caribbean"},"geometry":{"type":"Point","coordinates":[-46.6396,-23.5558]}},{"type":"Feature","properties":{"name":"Chicago","latitude":41.8781,"longitude":-87.6298,"population":8864000,"gawc":"Alpha","country":"United States","region":"North America"},"geometry":{"type":"Point","coordinates":[-87.6298,41.8781]}},{"type":"Feature","properties":{"name":"Kuala Lumpur","latitude":3.1319,"longitude":101.6841,"population":7564000,"gawc":"Alpha","country":"Malaysia","region":"East Asia and Pacific"},"geometry":{"type":"Point","coordinates":[101.6841,3.1319]}},{"type":"Feature","properties":{"name":"Madrid","latitude":40.4168,"longitude":-3.7038,"population":6497000,"gawc":"Alpha","country":"Spain","region":"Europe and Central Asia"},"geometry":{"type":"Point","coordinates":[-3.7038,40.4168]}},{"type":"Feature","properties":{"name":"Moscow","latitude":55.7558,"longitude":37.6173,"population":12410000,"gawc":"Alpha","country":"Russia","region":"Europe and Central Asia"},"geometry":{"type":"Point","coordinates":[37.6173,55.7558]}},{"type":"Feature","properties":{"name":"Jakarta","latitude":-6.1944,"longitude":106.8229,"population":10517000,"gawc":"Alpha","country":"Indonesia","region":"East Asia and Pacific"},"geometry":{"type":"Point","coordinates":[106.8229,-6.1944]}},{"type":"Feature","properties":{"name":"Brussels","latitude":50.8476,"longitude":4.3572,"population":2500000,"gawc":"Alpha","country":"Belgium","region":"Europe and Central Asia"},"geometry":{"type":"Point","coordinates":[4.3572,50.8476]}},{"type":"Feature","properties":{"name":"Warsaw","latitude":52.2297,"longitude":21.0122,"population":3269510,"gawc":"Alpha -","country":"Poland","region":"Europe and Central Asia"},"geometry":{"type":"Point","coordinates":[21.0122,52.2297]}},{"type":"Feature","properties":{"name":"Seoul","latitude":37.5519,"longitude":126.9918,"population":9963000,"gawc":"Alpha -","country":"South Korea","region":"East Asia and Pacific"},"geometry":{"type":"Point","coordinates":[126.9918,37.5519]}},{"type":"Feature","properties":{"name":"Johannesburg","latitude":-26.2056,"longitude":28.0337,"population":5486000,"gawc":"Alpha -","country":"South Africa","region":"Sub-Saharan Africa"},"geometry":{"type":"Point","coordinates":[28.0337,-26.2056]}},{"type":"Feature","properties":{"name":"Zurich","latitude":47.3769,"longitude":8.5417,"population":415367,"gawc":"Alpha -","country":"Switzerland","region":"Europe and Central Asia"},"geometry":{"type":"Point","coordinates":[8.5417,47.3769]}},{"type":"Feature","properties":{"name":"Melbourne","latitude":-37.8136,"longitude":144.9631,"population":5207145,"gawc":"Alpha -","country":"Australia","region":"East Asia and Pacific"},"geometry":{"type":"Point","coordinates":[144.9631,-37.8136]}},{"type":"Feature","properties":{"name":"Istanbul","latitude":41.0082,"longitude":28.9784,"population":14751000,"gawc":"Alpha -","country":"Turkey","region":"Europe and Central Asia"},"geometry":{"type":"Point","coordinates":[28.9784,41.0082]}},{"type":"Feature","properties":{"name":"Bangkok","latitude":13.7563,"longitude":100.5018,"population":10156000,"gawc":"Alpha -","country":"Thailand","region":"East Asia and Pacific"},"geometry":{"type":"Point","coordinates":[100.5018,13.7563]}},{"type":"Feature","properties":{"name":"Stockholm","latitude":59.3293,"longitude":18.0686,"population":1617407,"gawc":"Alpha -","country":"Sweden","region":"Europe and Central Asia"},"geometry":{"type":"Point","coordinates":[18.0686,59.3293]}},{"type":"Feature","properties":{"name":"Vienna","latitude":48.2082,"longitude":16.3719,"population":2002821,"gawc":"Alpha -","country":"Austria","region":"Europe and Central Asia"},"geometry":{"type":"Point","coordinates":[16.3719,48.2082]}},{"type":"Feature","properties":{"name":"Guangzhou","latitude":23.1291,"longitude":113.2644,"population":12638000,"gawc":"Alpha -","country":"China","region":"East Asia and Pacific"},"geometry":{"type":"Point","coordinates":[113.2644,23.1291]}},{"type":"Feature","properties":{"name":"Dublin","latitude":53.3498,"longitude":-6.2603,"population":1263219,"gawc":"Alpha -","country":"Ireland","region":"Europe and Central Asia"},"geometry":{"type":"Point","coordinates":[-6.2603,53.3498]}},{"type":"Feature","properties":{"name":"Taipei","latitude":25.033,"longitude":121.5654,"population":9078000,"gawc":"Alpha -","country":"Taiwan","region":"East Asia and Pacific"},"geometry":{"type":"Point","coordinates":[121.5654,25.033]}},{"type":"Feature","properties":{"name":"Buenos Aires","latitude":-34.6037,"longitude":-58.3816,"population":14967000,"gawc":"Alpha -","country":"Argentina","region":"Latin America and Caribbean"},"geometry":{"type":"Point","coordinates":[-58.3816,-34.6037]}},{"type":"Feature","properties":{"name":"San Francisco","latitude":37.7749,"longitude":-122.4194,"population":4623264,"gawc":"Alpha -","country":"United States","region":"North America"},"geometry":{"type":"Point","coordinates":[-122.4194,37.7749]}},{"type":"Feature","properties":{"name":"Luxembourg","latitude":49.6116,"longitude":6.1319,"population":134714,"gawc":"Alpha -","country":"Luxembourg","region":"Europe and Central Asia"},"geometry":{"type":"Point","coordinates":[6.1319,49.6116]}},{"type":"Feature","properties":{"name":"Montreal","latitude":45.5019,"longitude":-73.5674,"population":4291732,"gawc":"Alpha -","country":"Canada","region":"North America"},"geometry":{"type":"Point","coordinates":[-73.5674,45.5019]}},{"type":"Feature","properties":{"name":"Munich","latitude":48.1351,"longitude":11.582,"population":2606021,"gawc":"Alpha -","country":"Germany","region":"Europe and Central Asia"},"geometry":{"type":"Point","coordinates":[11.582,48.1351]}},{"type":"Feature","properties":{"name":"Delhi","latitude":28.6139,"longitude":77.209,"population":28514000,"gawc":"Alpha -","country":"India","region":"South Asia"},"geometry":{"type":"Point","coordinates":[77.209,28.6139]}},{"type":"Feature","properties":{"name":"Santiago","latitude":-33.4489,"longitude":-70.6693,"population":6680000,"gawc":"Alpha -","country":"Chile","region":"Latin America and Caribbean"},"geometry":{"type":"Point","coordinates":[-70.6693,-33.4489]}},{"type":"Feature","properties":{"name":"Boston","latitude":42.3601,"longitude":-71.0589,"population":4941632,"gawc":"Alpha -","country":"United States","region":"North America"},"geometry":{"type":"Point","coordinates":[-71.0589,42.3601]},"id":43},{"type":"Feature","properties":{"name":"Manila","latitude":14.5995,"longitude":120.9842,"population":13482000,"gawc":"Alpha -","country":"Philippines","region":"East Asia and Pacific"},"geometry":{"type":"Point","coordinates":[120.9842,14.5995]}},{"type":"Feature","properties":{"name":"Shenzhen","latitude":22.5429,"longitude":114.0596,"population":11908000,"gawc":"Alpha -","country":"China","region":"East Asia and Pacific"},"geometry":{"type":"Point","coordinates":[114.0596,22.5429]}},{"type":"Feature","properties":{"name":"Riyadh","latitude":24.6365,"longitude":46.716,"population":7009100,"gawc":"Alpha -","country":"Saudi Arabia","region":"Middle East and North Africa"},"geometry":{"type":"Point","coordinates":[46.716,24.6365]}},{"type":"Feature","properties":{"name":"Lisbon","latitude":38.7223,"longitude":-9.1393,"population":2899670,"gawc":"Alpha -","country":"Portugal","region":"Europe and Central Asia"},"geometry":{"type":"Point","coordinates":[-9.1393,38.7223]}},{"type":"Feature","properties":{"name":"Prague","latitude":50.0755,"longitude":14.4378,"population":2267817,"gawc":"Alpha -","country":"Czech Republic","region":"Europe and Central Asia"},"geometry":{"type":"Point","coordinates":[14.4378,50.0755]}},{"type":"Feature","properties":{"name":"Bangalore","latitude":12.9716,"longitude":77.5946,"population":11440000,"gawc":"Alpha -","country":"India","region":"South Asia"},"geometry":{"type":"Point","coordinates":[77.5946,12.9716]}},{"type":"Feature","properties":{"name":"Washington D.C.","latitude":38.9072,"longitude":-77.0369,"population":5207000,"gawc":"Beta +","country":"United States","region":"North America"},"geometry":{"type":"Point","coordinates":[-77.0369,38.9072]}},{"type":"Feature","properties":{"name":"Dallas","latitude":32.7767,"longitude":-96.797,"population":6099000,"gawc":"Beta +","country":"United States","region":"North America"},"geometry":{"type":"Point","coordinates":[-96.797,32.7767]}},{"type":"Feature","properties":{"name":"Bogota","latitude":4.711,"longitude":-74.0721,"population":10574000,"gawc":"Beta +","country":"Colombia","region":"Latin America and Caribbean"},"geometry":{"type":"Point","coordinates":[-74.0721,4.711]}},{"type":"Feature","properties":{"name":"Miami","latitude":25.7617,"longitude":-80.1918,"population":6036000,"gawc":"Beta +","country":"United States","region":"North America"},"geometry":{"type":"Point","coordinates":[-80.1918,25.7617]}},{"type":"Feature","properties":{"name":"Rome","latitude":41.8967,"longitude":12.4822,"population":4342212,"gawc":"Beta +","country":"Italy","region":"Europe and Central Asia"},"geometry":{"type":"Point","coordinates":[12.4822,41.8967]}},{"type":"Feature","properties":{"name":"Hamburg","latitude":53.5488,"longitude":9.9872,"population":2484800,"gawc":"Beta +","country":"Germany","region":"Europe and Central Asia"},"geometry":{"type":"Point","coordinates":[9.9872,53.5488]}},{"type":"Feature","properties":{"name":"Houston","latitude":29.7604,"longitude":-95.3698,"population":6115000,"gawc":"Beta +","country":"United States","region":"North America"},"geometry":{"type":"Point","coordinates":[-95.3698,29.7604]}},{"type":"Feature","properties":{"name":"Berlin","latitude":52.52,"longitude":13.405,"population":4768142,"gawc":"Beta +","country":"Germany","region":"Europe and Central Asia"},"geometry":{"type":"Point","coordinates":[13.405,52.52]}},{"type":"Feature","properties":{"name":"Chengdu","latitude":30.5723,"longitude":104.0665,"population":8813000,"gawc":"Beta +","country":"China","region":"East Asia and Pacific"},"geometry":{"type":"Point","coordinates":[104.0665,30.5723]}},{"type":"Feature","properties":{"name":"Dusseldorf","latitude":51.223,"longitude":6.7825,"population":1220000,"gawc":"Beta +","country":"Germany","region":"Europe and Central Asia"},"geometry":{"type":"Point","coordinates":[6.7825,51.223]}},{"type":"Feature","properties":{"name":"Tel Aviv","latitude":32.0853,"longitude":34.7818,"population":1388400,"gawc":"Beta +","country":"Israel","region":"Middle East and North Africa"},"geometry":{"type":"Point","coordinates":[34.7818,32.0853]}},{"type":"Feature","properties":{"name":"Barcelona","latitude":41.3874,"longitude":2.1686,"population":5494000,"gawc":"Beta +","country":"Spain","region":"Europe and Central Asia"},"geometry":{"type":"Point","coordinates":[2.1686,41.3874]}},{"type":"Feature","properties":{"name":"Budapest","latitude":47.4979,"longitude":19.0402,"population":2999794,"gawc":"Beta +","country":"Hungary","region":"Europe and Central Asia"},"geometry":{"type":"Point","coordinates":[19.0402,47.4979]}},{"type":"Feature","properties":{"name":"Doha","latitude":25.2854,"longitude":51.531,"population":1186023,"gawc":"Beta +","country":"Qatar","region":"Middle East and North Africa"},"geometry":{"type":"Point","coordinates":[51.531,25.2854]}},{"type":"Feature","properties":{"name":"Lima","latitude":-12.0464,"longitude":-77.0428,"population":10391000,"gawc":"Beta +","country":"Peru","region":"Latin America and Caribbean"},"geometry":{"type":"Point","coordinates":[-77.0428,-12.0464]}},{"type":"Feature","properties":{"name":"Copenhagen","latitude":55.6761,"longitude":12.5683,"population":1366301,"gawc":"Beta +","country":"Denmark","region":"Europe and Central Asia"},"geometry":{"type":"Point","coordinates":[12.5683,55.6761]}},{"type":"Feature","properties":{"name":"Atlanta","latitude":33.7488,"longitude":-84.3877,"population":5572000,"gawc":"Beta +","country":"United States","region":"North America"},"geometry":{"type":"Point","coordinates":[-84.3877,33.7488]}},{"type":"Feature","properties":{"name":"Bucharest","latitude":44.4268,"longitude":26.1025,"population":1739297,"gawc":"Beta +","country":"Romania","region":"Europe and Central Asia"},"geometry":{"type":"Point","coordinates":[26.1025,44.4268]}},{"type":"Feature","properties":{"name":"Vancouver","latitude":49.2827,"longitude":-123.1207,"population":2642825,"gawc":"Beta +","country":"Canada","region":"North America"},"geometry":{"type":"Point","coordinates":[-123.1207,49.2827]}},{"type":"Feature","properties":{"name":"Brisbane","latitude":-27.4705,"longitude":153.026,"population":2628083,"gawc":"Beta +","country":"Australia","region":"East Asia and Pacific"},"geometry":{"type":"Point","coordinates":[153.026,-27.4705]}},{"type":"Feature","properties":{"name":"Cairo","latitude":30.0444,"longitude":31.2357,"population":20076000,"gawc":"Beta +","country":"Egypt","region":"Middle East and North Africa"},"geometry":{"type":"Point","coordinates":[31.2357,30.0444]}},{"type":"Feature","properties":{"name":"Beirut","latitude":33.8955,"longitude":35.4796,"population":2145527,"gawc":"Beta +","country":"Lebanon","region":"Middle East and North Africa"},"geometry":{"type":"Point","coordinates":[35.4796,33.8955]}},{"type":"Feature","properties":{"name":"Auckland","latitude":-36.8509,"longitude":174.7645,"population":1739300,"gawc":"Beta +","country":"New Zealand","region":"East Asia and Pacific"},"geometry":{"type":"Point","coordinates":[174.7645,-36.8509]}},{"type":"Feature","properties":{"name":"Ho Chi Minh City","latitude":10.8231,"longitude":106.6297,"population":8145000,"gawc":"Beta","country":"Vietnam","region":"East Asia and Pacific"},"geometry":{"type":"Point","coordinates":[106.6297,10.8231]}},{"type":"Feature","properties":{"name":"Athens","latitude":37.9838,"longitude":23.7275,"population":3059764,"gawc":"Beta","country":"Greece","region":"Europe and Central Asia"},"geometry":{"type":"Point","coordinates":[23.7275,37.9838]}},{"type":"Feature","properties":{"name":"Denver","latitude":39.7392,"longitude":-104.9903,"population":2963821,"gawc":"Beta","country":"United States","region":"North America"},"geometry":{"type":"Point","coordinates":[-104.9903,39.7392]}},{"type":"Feature","properties":{"name":"Tianjin","latitude":39.0851,"longitude":117.1994,"population":13215000,"gawc":"Beta","country":"China","region":"East Asia and Pacific"},"geometry":{"type":"Point","coordinates":[117.1994,39.0851]}},{"type":"Feature","properties":{"name":"Abu Dhabi","latitude":24.4539,"longitude":54.3773,"population":1807000,"gawc":"Beta","country":"United Arab Emirates","region":"Middle East and North Africa"},"geometry":{"type":"Point","coordinates":[54.3773,24.4539]}},{"type":"Feature","properties":{"name":"Perth","latitude":-31.9514,"longitude":115.8617,"population":2309338,"gawc":"Beta","country":"Australia","region":"East Asia and Pacific"},"geometry":{"type":"Point","coordinates":[115.8617,-31.9514]}},{"type":"Feature","properties":{"name":"Casablanca","latitude":33.5731,"longitude":-7.5898,"population":4270750,"gawc":"Beta","country":"Morocco","region":"Middle East and North Africa"},"geometry":{"type":"Point","coordinates":[-7.5898,33.5731]}},{"type":"Feature","properties":{"name":"Kiev","latitude":50.4504,"longitude":30.5245,"population":3475000,"gawc":"Beta","country":"Ukraine","region":"Europe and Central Asia"},"geometry":{"type":"Point","coordinates":[30.5245,50.4504]}},{"type":"Feature","properties":{"name":"Montevideo","latitude":-34.9055,"longitude":-56.1851,"population":1947604,"gawc":"Beta","country":"Uruguay","region":"Latin America and Caribbean"},"geometry":{"type":"Point","coordinates":[-56.1851,-34.9055]}},{"type":"Feature","properties":{"name":"Oslo","latitude":59.9139,"longitude":10.7522,"population":1064235,"gawc":"Beta","country":"Norway","region":"Europe and Central Asia"},"geometry":{"type":"Point","coordinates":[10.7522,59.9139]}},{"type":"Feature","properties":{"name":"Helsinki","latitude":60.1699,"longitude":24.9384,"population":1360075,"gawc":"Beta","country":"Finland","region":"Europe and Central Asia"},"geometry":{"type":"Point","coordinates":[24.9384,60.1699]}},{"type":"Feature","properties":{"name":"Chennai","latitude":13.0827,"longitude":80.2707,"population":10456000,"gawc":"Beta","country":"India","region":"South Asia"},"geometry":{"type":"Point","coordinates":[80.2707,13.0827]}},{"type":"Feature","properties":{"name":"Hanoi","latitude":21.0278,"longitude":105.8342,"population":4138500,"gawc":"Beta","country":"Vietnam","region":"East Asia and Pacific"},"geometry":{"type":"Point","coordinates":[105.8342,21.0278]}},{"type":"Feature","properties":{"name":"Nanjing","latitude":32.0584,"longitude":118.7965,"population":8245000,"gawc":"Beta","country":"China","region":"East Asia and Pacific"},"geometry":{"type":"Point","coordinates":[118.7965,32.0584]}},{"type":"Feature","properties":{"name":"Philadelphia","latitude":39.9526,"longitude":-75.1652,"population":5695000,"gawc":"Beta","country":"United States","region":"North America"},"geometry":{"type":"Point","coordinates":[-75.1652,39.9526]}},{"type":"Feature","properties":{"name":"Cape Town","latitude":-33.9221,"longitude":18.4231,"population":4770313,"gawc":"Beta","country":"South Africa","region":"Sub-Saharan Africa"},"geometry":{"type":"Point","coordinates":[18.4231,-33.9221]}},{"type":"Feature","properties":{"name":"Hangzhou","latitude":30.2741,"longitude":120.1552,"population":7236000,"gawc":"Beta","country":"China","region":"East Asia and Pacific"},"geometry":{"type":"Point","coordinates":[120.1552,30.2741]}},{"type":"Feature","properties":{"name":"Nairobi","latitude":-1.2921,"longitude":36.8219,"population":4828000,"gawc":"Beta","country":"Kenya","region":"Sub-Saharan Africa"},"geometry":{"type":"Point","coordinates":[36.8219,-1.2921]}},{"type":"Feature","properties":{"name":"Seattle","latitude":47.6061,"longitude":-122.3328,"population":4018762,"gawc":"Beta","country":"United States","region":"North America"},"geometry":{"type":"Point","coordinates":[-122.3328,47.6061]}},{"type":"Feature","properties":{"name":"Manama","latitude":26.2235,"longitude":50.5876,"population":635000,"gawc":"Beta","country":"Bahrain","region":"Middle East and North Africa"},"geometry":{"type":"Point","coordinates":[50.5876,26.2235]}},{"type":"Feature","properties":{"name":"Karachi","latitude":24.8607,"longitude":67.0011,"population":15400000,"gawc":"Beta","country":"Pakistan","region":"South Asia"},"geometry":{"type":"Point","coordinates":[67.0011,24.8607]}},{"type":"Feature","properties":{"name":"Rio de Janeiro","latitude":-22.9068,"longitude":-43.1729,"population":13293000,"gawc":"Beta","country":"Brazil","region":"Latin America and Caribbean"},"geometry":{"type":"Point","coordinates":[-43.1729,-22.9068]}},{"type":"Feature","properties":{"name":"Chongqing","latitude":29.5657,"longitude":106.5512,"population":14838000,"gawc":"Beta","country":"China","region":"East Asia and Pacific"},"geometry":{"type":"Point","coordinates":[106.5512,29.5657]}},{"type":"Feature","properties":{"name":"Panama City","latitude":8.9824,"longitude":-79.5199,"population":1500189,"gawc":"Beta","country":"Panama","region":"Latin America and Caribbean"},"geometry":{"type":"Point","coordinates":[-79.5199,8.9824]}},{"type":"Feature","properties":{"name":"Wuhan","latitude":30.5928,"longitude":114.3052,"population":8176000,"gawc":"Beta -","country":"China","region":"East Asia and Pacific"},"geometry":{"type":"Point","coordinates":[114.3052,30.5928]}},{"type":"Feature","properties":{"name":"Manchester","latitude":53.4808,"longitude":-2.2426,"population":549853,"gawc":"Beta -","country":"United Kingdom","region":"Europe and Central Asia"},"geometry":{"type":"Point","coordinates":[-2.2426,53.4808]}},{"type":"Feature","properties":{"name":"Geneva","latitude":46.2044,"longitude":6.1432,"population":201741,"gawc":"Beta -","country":"Switzerland","region":"Europe and Central Asia"},"geometry":{"type":"Point","coordinates":[6.1432,46.2044]}},{"type":"Feature","properties":{"name":"Osaka","latitude":34.6937,"longitude":135.5023,"population":19281000,"gawc":"Beta -","country":"Japan","region":"East Asia and Pacific"},"geometry":{"type":"Point","coordinates":[135.5023,34.6937]}},{"type":"Feature","properties":{"name":"Stuttgart","latitude":48.7758,"longitude":9.1829,"population":2787724,"gawc":"Beta -","country":"Germany","region":"Europe and Central Asia"},"geometry":{"type":"Point","coordinates":[9.1829,48.7758]}},{"type":"Feature","properties":{"name":"Belgrade","latitude":44.8125,"longitude":20.4612,"population":1383875,"gawc":"Beta -","country":"Serbia","region":"Europe and Central Asia"},"geometry":{"type":"Point","coordinates":[20.4612,44.8125]}},{"type":"Feature","properties":{"name":"Calgary","latitude":51.0447,"longitude":-114.0719,"population":1481806,"gawc":"Beta -","country":"Canada","region":"North America"},"geometry":{"type":"Point","coordinates":[-114.0719,51.0447]}},{"type":"Feature","properties":{"name":"Monterrey","latitude":25.6866,"longitude":-100.3161,"population":5341171,"gawc":"Beta -","country":"Mexico","region":"Latin America and Caribbean"},"geometry":{"type":"Point","coordinates":[-100.3161,25.6866]}},{"type":"Feature","properties":{"name":"Kuwait City","latitude":29.3759,"longitude":47.9774,"population":3000000,"gawc":"Beta -","country":"Kuwait","region":"Middle East and North Africa"},"geometry":{"type":"Point","coordinates":[47.9774,29.3759]}},{"type":"Feature","properties":{"name":"Caracas","latitude":10.4806,"longitude":-66.9036,"population":8956813,"gawc":"Beta -","country":"Venezuela","region":"Latin America and Caribbean"},"geometry":{"type":"Point","coordinates":[-66.9036,10.4806]}},{"type":"Feature","properties":{"name":"Changsha","latitude":28.2278,"longitude":112.9389,"population":5980707,"gawc":"Beta -","country":"China","region":"East Asia and Pacific"},"geometry":{"type":"Point","coordinates":[112.9389,28.2278]}},{"type":"Feature","properties":{"name":"Bratislava","latitude":48.1486,"longitude":17.1077,"population":728370,"gawc":"Beta -","country":"Slovakia","region":"Europe and Central Asia"},"geometry":{"type":"Point","coordinates":[17.1077,48.1486]}},{"type":"Feature","properties":{"name":"Sofia","latitude":42.6977,"longitude":23.3219,"population":1667314,"gawc":"Beta -","country":"Bulgaria","region":"Europe and Central Asia"},"geometry":{"type":"Point","coordinates":[23.3219,42.6977]}},{"type":"Feature","properties":{"name":"San Jose","latitude":9.9281,"longitude":-84.0907,"population":2158898,"gawc":"Beta -","country":"Costa Rica","region":"Latin America and Caribbean"},"geometry":{"type":"Point","coordinates":[-84.0907,9.9281]}},{"type":"Feature","properties":{"name":"San Jose","latitude":9.9281,"longitude":-84.0907,"population":2158898,"gawc":"Beta -","country":"Costa Rica","region":"Latin America and Caribbean"},"geometry":{"type":"Point","coordinates":[-84.0907,9.9281]}},{"type":"Feature","properties":{"name":"Zagreb","latitude":45.815,"longitude":15.9819,"population":1217150,"gawc":"Beta -","country":"Croatia","region":"Europe and Central Asia"},"geometry":{"type":"Point","coordinates":[15.9819,45.815]}},{"type":"Feature","properties":{"name":"Dhaka","latitude":23.7646,"longitude":90.3893,"population":19578000,"gawc":"Beta -","country":"Bangladesh","region":"South Asia"},"geometry":{"type":"Point","coordinates":[90.3893,23.7646]}},{"type":"Feature","properties":{"name":"Xiamen","latitude":24.4795,"longitude":118.0895,"population":5163970,"gawc":"Beta -","country":"China","region":"East Asia and Pacific"},"geometry":{"type":"Point","coordinates":[118.0895,24.4795]}},{"type":"Feature","properties":{"name":"Tampa","latitude":27.9517,"longitude":-82.4588,"population":3175275,"gawc":"Beta -","country":"United States","region":"North America"},"geometry":{"type":"Point","coordinates":[-82.4588,27.9517]}},{"type":"Feature","properties":{"name":"Zhengzhou","latitude":34.7472,"longitude":113.6249,"population":6650532,"gawc":"Beta -","country":"China","region":"East Asia and Pacific"},"geometry":{"type":"Point","coordinates":[113.6249,34.7472]}},{"type":"Feature","properties":{"name":"Tunis","latitude":36.8065,"longitude":10.1815,"population":2671882,"gawc":"Beta -","country":"Tunisia","region":"Middle East and North Africa"},"geometry":{"type":"Point","coordinates":[10.1815,36.8065]}},{"type":"Feature","properties":{"name":"Almaty","latitude":43.238,"longitude":76.947,"population":2235963,"gawc":"Beta -","country":"Kazahkstan","region":"Europe and East Asia"},"geometry":{"type":"Point","coordinates":[76.947,43.238]}},{"type":"Feature","properties":{"name":"Shenyang","latitude":41.8048,"longitude":123.433,"population":6921000,"gawc":"Beta -","country":"China","region":"East Asia and Pacific"},"geometry":{"type":"Point","coordinates":[123.433,41.8048]}},{"type":"Feature","properties":{"name":"Lyon","latitude":45.764,"longitude":4.8357,"population":2293180,"gawc":"Beta -","country":"France","region":"Europe and Central Asia"},"geometry":{"type":"Point","coordinates":[4.8357,45.764]}},{"type":"Feature","properties":{"name":"Minneapolis","latitude":44.9778,"longitude":-93.265,"population":2914866,"gawc":"Beta -","country":"United States","region":"North America"},"geometry":{"type":"Point","coordinates":[-93.265,44.9778]}},{"type":"Feature","properties":{"name":"Nicosia","latitude":35.1739,"longitude":33.3644,"population":244200,"gawc":"Beta -","country":"Cyprus","region":"Europe and Central Asia"},"geometry":{"type":"Point","coordinates":[33.3644,35.1739]}},{"type":"Feature","properties":{"name":"San Diego","latitude":32.7157,"longitude":-117.1611,"population":3070300,"gawc":"Beta -","country":"United States","region":"North America"},"geometry":{"type":"Point","coordinates":[-117.1611,32.7157]}},{"type":"Feature","properties":{"name":"Amman","latitude":31.951,"longitude":35.9241,"population":4061150,"gawc":"Beta -","country":"Jordan","region":"Middle East and North Africa"},"geometry":{"type":"Point","coordinates":[35.9241,31.951]}},{"type":"Feature","properties":{"name":"Xi'An","latitude":34.2658,"longitude":108.9541,"population":7444000,"gawc":"Beta -","country":"China","region":"East Asia and Pacific"},"geometry":{"type":"Point","coordinates":[108.9541,34.2658]}},{"type":"Feature","properties":{"name":"Guatemala City","latitude":14.6349,"longitude":-90.5069,"population":3014000,"gawc":"Beta -","country":"Guatemala","region":"Latin America and Caribbean"},"geometry":{"type":"Point","coordinates":[-90.5069,14.6349]}},{"type":"Feature","properties":{"name":"Dalian","latitude":38.914,"longitude":121.6147,"population":5300000,"gawc":"Beta -","country":"China","region":"East Asia and Pacific"},"geometry":{"type":"Point","coordinates":[121.6147,38.914]}},{"type":"Feature","properties":{"name":"St. Petersburg","latitude":59.9311,"longitude":30.3609,"population":5383000,"gawc":"Beta -","country":"Russia","region":"Europe and Central Asia"},"geometry":{"type":"Point","coordinates":[30.3609,59.9311]}},{"type":"Feature","properties":{"name":"Lagos","latitude":6.5244,"longitude":3.3792,"population":13463000,"gawc":"Beta -","country":"Nigeria","region":"Sub-Saharan Africa"},"geometry":{"type":"Point","coordinates":[3.3792,6.5244]}},{"type":"Feature","properties":{"name":"Quito","latitude":-0.2241,"longitude":-78.5109,"population":2889703,"gawc":"Beta -","country":"Ecuador","region":"Latin America and Caribbean"},"geometry":{"type":"Point","coordinates":[-78.5109,-0.2241]}},{"type":"Feature","properties":{"name":"Jinan","latitude":36.6518,"longitude":117.019,"population":5052000,"gawc":"Beta -","country":"China","region":"East Asia and Pacific"},"geometry":{"type":"Point","coordinates":[117.019,36.6518]}},{"type":"Feature","properties":{"name":"San Salvador","latitude":13.6929,"longitude":-89.2182,"population":2177432,"gawc":"Beta -","country":"El Salvador","region":"Latin America and Caribbean"},"geometry":{"type":"Point","coordinates":[-89.2182,13.6929]}},{"type":"Feature","properties":{"name":"Kampala","latitude":0.3152,"longitude":32.5816,"population":6709900,"gawc":"Beta -","country":"Uganda","region":"Sub-Saharan Africa"},"geometry":{"type":"Point","coordinates":[32.5816,0.3152]}},{"type":"Feature","properties":{"name":"George Town","latitude":19.2966,"longitude":-81.3819,"population":40957,"gawc":"Beta -","country":"Cayman Islands","region":"Latin America and Caribbean"},"geometry":{"type":"Point","coordinates":[-81.3819,19.2966]}},{"type":"Feature","properties":{"name":"Muscat","latitude":23.588,"longitude":58.3829,"population":1720000,"gawc":"Beta -","country":"Oman","region":"Middle East and North Africa"},"geometry":{"type":"Point","coordinates":[58.3829,23.588]}},{"type":"Feature","properties":{"name":"Detroit","latitude":42.3314,"longitude":-83.0458,"population":4365205,"gawc":"Beta -","country":"United States","region":"North America"},"geometry":{"type":"Point","coordinates":[-83.0458,42.3314]}},{"type":"Feature","properties":{"name":"Edinburgh","latitude":55.9533,"longitude":-3.1883,"population":901455,"gawc":"Beta -","country":"United Kingdom","region":"Europe and Central Asia"},"geometry":{"type":"Point","coordinates":[-3.1883,55.9533]}},{"type":"Feature","properties":{"name":"Jeddah","latitude":21.5292,"longitude":39.1611,"population":3751722,"gawc":"Beta -","country":"Saudi Arabia","region":"Middle East and North Africa"},"geometry":{"type":"Point","coordinates":[39.1611,21.5292]}},{"type":"Feature","properties":{"name":"Hyderabad","latitude":17.4065,"longitude":78.4772,"population":9482000,"gawc":"Beta -","country":"India","region":"South Asia"},"geometry":{"type":"Point","coordinates":[78.4772,17.4065]}},{"type":"Feature","properties":{"name":"Lahore","latitude":31.5204,"longitude":74.3587,"population":11738000,"gawc":"Beta -","country":"Pakistan","region":"South Asia"},"geometry":{"type":"Point","coordinates":[74.3587,31.5204]}},{"type":"Feature","properties":{"name":"Austin","latitude":30.2672,"longitude":-97.7431,"population":2473275,"gawc":"Beta -","country":"United States","region":"North America"},"geometry":{"type":"Point","coordinates":[-97.7431,30.2672]}}]}